$GPRMC,080624.000,A,5005.4351,N,00839.8986,E,,,110321,,*05
$GPGGA,080624.00,5005.4350677,N,00839.8986421,E,1,10,1.1,179.118,M,0.0,M,,*5c
$GPRMC,080625.000,A,5005.4351,N,00839.8986,E,,,110321,,*04
$GPGGA,080625.00,5005.4351009,N,00839.8985699,E,1,10,1.1,178.457,M,0.0,M,,*5e
$GPRMC,080626.000,A,5005.4351,N,00839.8988,E,,,110321,,*09
$GPGGA,080626.00,5005.4351154,N,00839.8987501,E,1,10,1.1,178.325,M,0.0,M,,*56
$GPRMC,080627.000,A,5005.4350,N,00839.8988,E,,,110321,,*09
$GPGGA,080627.00,5005.4350028,N,00839.8987691,E,1,10,1.1,178.244,M,0.0,M,,*50
$GPRMC,080628.000,A,5005.4351,N,00839.8988,E,,,110321,,*07
$GPGGA,080628.00,5005.4350732,N,00839.8987573,E,1,10,1.1,178.176,M,0.0,M,,*5e
$GPRMC,080629.000,A,5005.4351,N,00839.8988,E,,,110321,,*06
$GPGGA,080629.00,5005.4350591,N,00839.8987625,E,1,10,1.1,178.325,M,0.0,M,,*50
$GPRMC,080630.000,A,5005.4350,N,00839.8988,E,,,110321,,*0f
$GPGGA,080630.00,5005.4350003,N,00839.8988216,E,1,10,1.1,178.497,M,0.0,M,,*53
$GPRMC,080631.000,A,5005.4350,N,00839.8988,E,,,110321,,*0e
$GPGGA,080631.00,5005.4349792,N,00839.8988230,E,1,10,1.1,178.478,M,0.0,M,,*50
$GPRMC,080632.000,A,5005.4350,N,00839.8988,E,,,110321,,*0d
$GPGGA,080632.00,5005.4349535,N,00839.8988159,E,1,10,1.1,178.449,M,0.0,M,,*52
$GPRMC,080633.000,A,5005.4349,N,00839.8988,E,,,110321,,*04
$GPGGA,080633.00,5005.4349200,N,00839.8988418,E,1,10,1.1,178.421,M,0.0,M,,*5c
$GPRMC,080634.000,A,5005.4349,N,00839.8988,E,,,110321,,*03
$GPGGA,080634.00,5005.4349286,N,00839.8988235,E,1,10,1.1,178.502,M,0.0,M,,*5c
$GPRMC,080635.000,A,5005.4349,N,00839.8988,E,,,110321,,*02
$GPGGA,080635.00,5005.4348840,N,00839.8987971,E,1,10,1.1,178.606,M,0.0,M,,*5f
$GPRMC,080636.000,A,5005.4349,N,00839.8988,E,,,110321,,*01
$GPGGA,080636.00,5005.4348808,N,00839.8988393,E,1,10,1.1,178.638,M,0.0,M,,*54
$GPRMC,080637.000,A,5005.4349,N,00839.8989,E,,,110321,,*01
$GPGGA,080637.00,5005.4348757,N,00839.8988536,E,1,10,1.1,178.644,M,0.0,M,,*52
$GPRMC,080638.000,A,5005.4349,N,00839.8989,E,,,110321,,*0e
$GPGGA,080638.00,5005.4348653,N,00839.8988586,E,1,10,1.1,178.644,M,0.0,M,,*53
$GPRMC,080639.000,A,5005.4349,N,00839.8989,E,,,110321,,*0f
$GPGGA,080639.00,5005.4348714,N,00839.8988598,E,1,10,1.1,178.734,M,0.0,M,,*59
$GPRMC,080640.000,A,5005.4349,N,00839.8989,E,,,110321,,*01
$GPGGA,080640.00,5005.4348932,N,00839.8988594,E,1,10,1.1,178.789,M,0.0,M,,*57
$GPRMC,080641.000,A,5005.4349,N,00839.8989,E,,,110321,,*00
$GPGGA,080641.00,5005.4348943,N,00839.8988561,E,1,10,1.1,178.891,M,0.0,M,,*5c
$GPRMC,080642.000,A,5005.4349,N,00839.8988,E,,,110321,,*02
$GPGGA,080642.00,5005.4349245,N,00839.8988472,E,1,10,1.1,178.917,M,0.0,M,,*5f
$GPRMC,080643.000,A,5005.4349,N,00839.8988,E,,,110321,,*03
$GPGGA,080643.00,5005.4349244,N,00839.8988438,E,1,10,1.1,179.014,M,0.0,M,,*5a
$GPRMC,080644.000,A,5005.4349,N,00839.8988,E,,,110321,,*04
$GPGGA,080644.00,5005.4349436,N,00839.8988411,E,1,10,1.1,179.017,M,0.0,M,,*56
$GPRMC,080645.000,A,5005.4349,N,00839.8988,E,,,110321,,*05
$GPGGA,080645.00,5005.4349304,N,00839.8988414,E,1,10,1.1,179.032,M,0.0,M,,*53
$GPRMC,080646.000,A,5005.4349,N,00839.8989,E,,,110321,,*07
$GPGGA,080646.00,5005.4349104,N,00839.8988596,E,1,10,1.1,179.065,M,0.0,M,,*5b
$GPRMC,080647.000,A,5005.4349,N,00839.8989,E,,,110321,,*06
$GPGGA,080647.00,5005.4349140,N,00839.8988509,E,1,10,1.1,179.121,M,0.0,M,,*5d
$GPRMC,080648.000,A,5005.4349,N,00839.8989,E,,,110321,,*09
$GPGGA,080648.00,5005.4349280,N,00839.8988617,E,1,10,1.1,179.146,M,0.0,M,,*50
$GPRMC,080649.000,A,5005.4349,N,00839.8989,E,,,110321,,*08
$GPGGA,080649.00,5005.4349397,N,00839.8988515,E,1,10,1.1,179.192,M,0.0,M,,*5e
$GPRMC,080650.000,A,5005.4349,N,00839.8988,E,,,110321,,*01
$GPGGA,080650.00,5005.4349490,N,00839.8988462,E,1,10,1.1,179.228,M,0.0,M,,*55
$GPRMC,080651.000,A,5005.4350,N,00839.8988,E,,,110321,,*08
$GPGGA,080651.00,5005.4349625,N,00839.8988368,E,1,10,1.1,179.239,M,0.0,M,,*55
$GPRMC,080652.000,A,5005.4350,N,00839.8989,E,,,110321,,*0a
$GPGGA,080652.00,5005.4349625,N,00839.8988528,E,1,10,1.1,179.222,M,0.0,M,,*5e
$GPRMC,080653.000,A,5005.4350,N,00839.8989,E,,,110321,,*0b
$GPGGA,080653.00,5005.4349566,N,00839.8988587,E,1,10,1.1,179.224,M,0.0,M,,*58
$GPRMC,080654.000,A,5005.4350,N,00839.8989,E,,,110321,,*0c
$GPGGA,080654.00,5005.4349632,N,00839.8988551,E,1,10,1.1,179.192,M,0.0,M,,*58
$GPRMC,080655.000,A,5005.4349,N,00839.8989,E,,,110321,,*05
$GPGGA,080655.00,5005.4349466,N,00839.8988535,E,1,10,1.1,179.198,M,0.0,M,,*52
$GPRMC,080656.000,A,5005.4349,N,00839.8989,E,,,110321,,*06
$GPGGA,080656.00,5005.4349295,N,00839.8988559,E,1,10,1.1,179.180,M,0.0,M,,*58
$GPRMC,080657.000,A,5005.4349,N,00839.8988,E,,,110321,,*06
$GPGGA,080657.00,5005.4349142,N,00839.8988414,E,1,10,1.1,179.197,M,0.0,M,,*5e
$GPRMC,080658.000,A,5005.4349,N,00839.8988,E,,,110321,,*09
$GPGGA,080658.00,5005.4348908,N,00839.8988331,E,1,10,1.1,179.194,M,0.0,M,,*55
$GPRMC,080659.000,A,5005.4349,N,00839.8988,E,,,110321,,*08
$GPGGA,080659.00,5005.4348706,N,00839.8988204,E,1,10,1.1,179.196,M,0.0,M,,*51
$GPRMC,080700.000,A,5005.4349,N,00839.8988,E,,,110321,,*05
$GPGGA,080700.00,5005.4348558,N,00839.8988092,E,1,10,1.1,179.200,M,0.0,M,,*54
$GPRMC,080701.000,A,5005.4349,N,00839.8988,E,,,110321,,*04
$GPGGA,080701.00,5005.4348516,N,00839.8988004,E,1,10,1.1,179.183,M,0.0,M,,*58
$GPRMC,080702.000,A,5005.4349,N,00839.8988,E,,,110321,,*07
$GPGGA,080702.00,5005.4348536,N,00839.8988024,E,1,10,1.1,179.168,M,0.0,M,,*5e
$GPRMC,080703.000,A,5005.4349,N,00839.8988,E,,,110321,,*06
$GPGGA,080703.00,5005.4348552,N,00839.8987932,E,1,10,1.1,179.181,M,0.0,M,,*5b
$GPRMC,080704.000,A,5005.4349,N,00839.8988,E,,,110321,,*01
$GPGGA,080704.00,5005.4348548,N,00839.8987833,E,1,10,1.1,179.170,M,0.0,M,,*59
$GPRMC,080705.000,A,5005.4349,N,00839.8988,E,,,110321,,*00
$GPGGA,080705.00,5005.4348607,N,00839.8987825,E,1,10,1.1,179.182,M,0.0,M,,*5a
$GPRMC,080706.000,A,5005.4349,N,00839.8988,E,,,110321,,*03
$GPGGA,080706.00,5005.4348653,N,00839.8987847,E,1,10,1.1,179.187,M,0.0,M,,*59
$GPRMC,080707.000,A,5005.4349,N,00839.8988,E,,,110321,,*02
$GPGGA,080707.00,5005.4348657,N,00839.8987847,E,1,10,1.1,179.166,M,0.0,M,,*53
$GPRMC,080708.000,A,5005.4349,N,00839.8988,E,,,110321,,*0d
$GPGGA,080708.00,5005.4348609,N,00839.8987833,E,1,10,1.1,179.161,M,0.0,M,,*53
$GPRMC,080709.000,A,5005.4349,N,00839.8988,E,,,110321,,*0c
$GPGGA,080709.00,5005.4348594,N,00839.8987896,E,1,10,1.1,179.126,M,0.0,M,,*59
$GPRMC,080710.000,A,5005.4348,N,00839.8988,E,,,110321,,*05
$GPGGA,080710.00,5005.4348463,N,00839.8987926,E,1,10,1.1,179.115,M,0.0,M,,*52
$GPRMC,080711.000,A,5005.4348,N,00839.8988,E,,,110321,,*04
$GPGGA,080711.00,5005.4348491,N,00839.8987840,E,1,10,1.1,179.087,M,0.0,M,,*55
$GPRMC,080712.000,A,5005.4348,N,00839.8988,E,,,110321,,*07
$GPGGA,080712.00,5005.4348486,N,00839.8987846,E,1,10,1.1,179.073,M,0.0,M,,*5d
$GPRMC,080713.000,A,5005.4349,N,00839.8988,E,,,110321,,*07
$GPGGA,080713.00,5005.4348650,N,00839.8987866,E,1,10,1.1,179.040,M,0.0,M,,*57
$GPRMC,080714.000,A,5005.4349,N,00839.8988,E,,,110321,,*00
$GPGGA,080714.00,5005.4348742,N,00839.8987931,E,1,10,1.1,179.026,M,0.0,M,,*51
$GPRMC,080715.000,A,5005.4349,N,00839.8988,E,,,110321,,*01
$GPGGA,080715.00,5005.4348837,N,00839.8987951,E,1,10,1.1,179.001,M,0.0,M,,*5e
$GPRMC,080716.000,A,5005.4349,N,00839.8988,E,,,110321,,*02
$GPGGA,080716.00,5005.4348889,N,00839.8988043,E,1,10,1.1,178.993,M,0.0,M,,*5e
$GPRMC,080717.000,A,5005.4349,N,00839.8988,E,,,110321,,*03
$GPGGA,080717.00,5005.4348721,N,00839.8988029,E,1,10,1.1,178.936,M,0.0,M,,*51
$GPRMC,080718.000,A,5005.4349,N,00839.8988,E,,,110321,,*0c
$GPGGA,080718.00,5005.4348597,N,00839.8988009,E,1,10,1.1,178.909,M,0.0,M,,*5f
$GPRMC,080719.000,A,5005.4349,N,00839.8988,E,,,110321,,*0d
$GPGGA,080719.00,5005.4348509,N,00839.8988023,E,1,10,1.1,178.897,M,0.0,M,,*57
$GPRMC,080720.000,A,5005.4348,N,00839.8988,E,,,110321,,*06
$GPGGA,080720.00,5005.4348441,N,00839.8987961,E,1,10,1.1,178.876,M,0.0,M,,*5f
$GPRMC,080721.000,A,5005.4348,N,00839.8988,E,,,110321,,*07
$GPGGA,080721.00,5005.4348427,N,00839.8987934,E,1,10,1.1,178.866,M,0.0,M,,*5f
$GPRMC,080722.000,A,5005.4348,N,00839.8988,E,,,110321,,*04
$GPGGA,080722.00,5005.4348424,N,00839.8987930,E,1,10,1.1,178.840,M,0.0,M,,*5f
$GPRMC,080723.000,A,5005.4348,N,00839.8988,E,,,110321,,*05
$GPGGA,080723.00,5005.4348392,N,00839.8987867,E,1,10,1.1,178.813,M,0.0,M,,*51
$GPRMC,080724.000,A,5005.4348,N,00839.8988,E,,,110321,,*02
$GPGGA,080724.00,5005.4348439,N,00839.8987880,E,1,10,1.1,178.795,M,0.0,M,,*58
$GPRMC,080725.000,A,5005.4348,N,00839.8988,E,,,110321,,*03
$GPGGA,080725.00,5005.4348450,N,00839.8987962,E,1,10,1.1,178.788,M,0.0,M,,*57
$GPRMC,080726.000,A,5005.4349,N,00839.8988,E,,,110321,,*01
$GPGGA,080726.00,5005.4348534,N,00839.8988008,E,1,10,1.1,178.788,M,0.0,M,,*5d
$GPRMC,080727.000,A,5005.4349,N,00839.8988,E,,,110321,,*00
$GPGGA,080727.00,5005.4348554,N,00839.8987948,E,1,10,1.1,178.803,M,0.0,M,,*54
$GPRMC,080728.000,A,5005.4348,N,00839.8988,E,,,110321,,*0e
$GPGGA,080728.00,5005.4348483,N,00839.8987956,E,1,10,1.1,178.806,M,0.0,M,,*5a
$GPRMC,080729.000,A,5005.4348,N,00839.8988,E,,,110321,,*0f
$GPGGA,080729.00,5005.4348407,N,00839.8988015,E,1,10,1.1,178.801,M,0.0,M,,*51
$GPRMC,080730.000,A,5005.4348,N,00839.8988,E,,,110321,,*07
$GPGGA,080730.00,5005.4348363,N,00839.8987990,E,1,10,1.1,178.801,M,0.0,M,,*57
$GPRMC,080731.000,A,5005.4348,N,00839.8988,E,,,110321,,*06
$GPGGA,080731.00,5005.4348309,N,00839.8987915,E,1,10,1.1,178.801,M,0.0,M,,*57
$GPRMC,080732.000,A,5005.4348,N,00839.8988,E,,,110321,,*05
$GPGGA,080732.00,5005.4348307,N,00839.8987885,E,1,10,1.1,178.785,M,0.0,M,,*51
$GPRMC,080733.000,A,5005.4348,N,00839.8988,E,,,110321,,*04
$GPGGA,080733.00,5005.4348321,N,00839.8987842,E,1,10,1.1,178.756,M,0.0,M,,*51
$GPRMC,080734.000,A,5005.4348,N,00839.8988,E,,,110321,,*03
$GPGGA,080734.00,5005.4348308,N,00839.8987844,E,1,10,1.1,178.748,M,0.0,M,,*54
$GPRMC,080735.000,A,5005.4348,N,00839.8988,E,,,110321,,*02
$GPGGA,080735.00,5005.4348326,N,00839.8987849,E,1,10,1.1,178.743,M,0.0,M,,*5f
$GPRMC,080736.000,A,5005.4348,N,00839.8988,E,,,110321,,*01
$GPGGA,080736.00,5005.4348318,N,00839.8987873,E,1,10,1.1,178.740,M,0.0,M,,*5b
$GPRMC,080737.000,A,5005.4348,N,00839.8988,E,,,110321,,*00
$GPGGA,080737.00,5005.4348414,N,00839.8987796,E,1,10,1.1,178.755,M,0.0,M,,*51
$GPRMC,080738.000,A,5005.4349,N,00839.8988,E,,,110321,,*0e
$GPGGA,080738.00,5005.4348565,N,00839.8987802,E,1,10,1.1,178.755,M,0.0,M,,*5b
$GPRMC,080739.000,A,5005.4349,N,00839.8988,E,,,110321,,*0f
$GPGGA,080739.00,5005.4348719,N,00839.8987831,E,1,10,1.1,178.768,M,0.0,M,,*5d
$GPRMC,080740.000,A,5005.4349,N,00839.8988,E,,,110321,,*01
$GPGGA,080740.00,5005.4348851,N,00839.8987848,E,1,10,1.1,178.783,M,0.0,M,,*5b
$GPRMC,080741.000,A,5005.4349,N,00839.8988,E,,,110321,,*00
$GPGGA,080741.00,5005.4348975,N,00839.8987896,E,1,10,1.1,178.790,M,0.0,M,,*5c
$GPRMC,080742.000,A,5005.4349,N,00839.8988,E,,,110321,,*03
$GPGGA,080742.00,5005.4348975,N,00839.8987944,E,1,10,1.1,178.784,M,0.0,M,,*54
$GPRMC,080743.000,A,5005.4349,N,00839.8988,E,,,110321,,*02
$GPGGA,080743.00,5005.4348970,N,00839.8987989,E,1,10,1.1,178.777,M,0.0,M,,*5d
$GPRMC,080744.000,A,5005.4349,N,00839.8988,E,,,110321,,*05
$GPGGA,080744.00,5005.4349038,N,00839.8988052,E,1,10,1.1,178.768,M,0.0,M,,*50
$GPRMC,080745.000,A,5005.4349,N,00839.8988,E,,,110321,,*04
$GPGGA,080745.00,5005.4349071,N,00839.8988097,E,1,10,1.1,178.771,M,0.0,M,,*5d
$GPRMC,080746.000,A,5005.4349,N,00839.8988,E,,,110321,,*07
$GPGGA,080746.00,5005.4349142,N,00839.8988159,E,1,10,1.1,178.751,M,0.0,M,,*5e
$GPRMC,080747.000,A,5005.4349,N,00839.8988,E,,,110321,,*06
$GPGGA,080747.00,5005.4349177,N,00839.8988183,E,1,10,1.1,178.717,M,0.0,M,,*5c
$GPRMC,080748.000,A,5005.4349,N,00839.8988,E,,,110321,,*09
$GPGGA,080748.00,5005.4349141,N,00839.8988196,E,1,10,1.1,178.698,M,0.0,M,,*54
$GPRMC,080749.000,A,5005.4349,N,00839.8988,E,,,110321,,*08
$GPGGA,080749.00,5005.4349116,N,00839.8988231,E,1,10,1.1,178.695,M,0.0,M,,*54
$GPRMC,080750.000,A,5005.4349,N,00839.8988,E,,,110321,,*00
$GPGGA,080750.00,5005.4349110,N,00839.8988236,E,1,10,1.1,178.696,M,0.0,M,,*5e
$GPRMC,080751.000,A,5005.4349,N,00839.8988,E,,,110321,,*01
$GPGGA,080751.00,5005.4349107,N,00839.8988206,E,1,10,1.1,178.692,M,0.0,M,,*5e
$GPRMC,080752.000,A,5005.4349,N,00839.8988,E,,,110321,,*02
$GPGGA,080752.00,5005.4349111,N,00839.8988222,E,1,10,1.1,178.691,M,0.0,M,,*5f
$GPRMC,080753.000,A,5005.4349,N,00839.8988,E,,,110321,,*03
$GPGGA,080753.00,5005.4349156,N,00839.8988207,E,1,10,1.1,178.683,M,0.0,M,,*59
$GPRMC,080754.000,A,5005.4349,N,00839.8988,E,,,110321,,*04
$GPGGA,080754.00,5005.4349239,N,00839.8988292,E,1,10,1.1,178.673,M,0.0,M,,*57
$GPRMC,080755.000,A,5005.4349,N,00839.8988,E,,,110321,,*05
$GPGGA,080755.00,5005.4349307,N,00839.8988273,E,1,10,1.1,178.672,M,0.0,M,,*54
$GPRMC,080756.000,A,5005.4349,N,00839.8988,E,,,110321,,*06
$GPGGA,080756.00,5005.4349287,N,00839.8988353,E,1,10,1.1,178.668,M,0.0,M,,*56
$GPRMC,080757.000,A,5005.4349,N,00839.8988,E,,,110321,,*07
$GPGGA,080757.00,5005.4349246,N,00839.8988432,E,1,10,1.1,178.661,M,0.0,M,,*53
$GPRMC,080758.000,A,5005.4349,N,00839.8988,E,,,110321,,*08
$GPGGA,080758.00,5005.4349157,N,00839.8988433,E,1,10,1.1,178.645,M,0.0,M,,*58
$GPRMC,080759.000,A,5005.4349,N,00839.8988,E,,,110321,,*09
$GPGGA,080759.00,5005.4349105,N,00839.8988342,E,1,10,1.1,178.631,M,0.0,M,,*5c
$GPRMC,080800.000,A,5005.4349,N,00839.8988,E,,,110321,,*0a
$GPGGA,080800.00,5005.4349077,N,00839.8988334,E,1,10,1.1,178.605,M,0.0,M,,*5d
$GPRMC,080801.000,A,5005.4349,N,00839.8988,E,,,110321,,*0b
$GPGGA,080801.00,5005.4349066,N,00839.8988390,E,1,10,1.1,178.601,M,0.0,M,,*56
$GPRMC,080802.000,A,5005.4349,N,00839.8988,E,,,110321,,*08
$GPGGA,080802.00,5005.4349037,N,00839.8988396,E,1,10,1.1,178.605,M,0.0,M,,*53
$GPRMC,080803.000,A,5005.4349,N,00839.8988,E,,,110321,,*09
$GPGGA,080803.00,5005.4349085,N,00839.8988416,E,1,10,1.1,178.599,M,0.0,M,,*52
$GPRMC,080804.000,A,5005.4349,N,00839.8988,E,,,110321,,*0e
$GPGGA,080804.00,5005.4349074,N,00839.8988453,E,1,10,1.1,178.601,M,0.0,M,,*58
$GPRMC,080805.000,A,5005.4349,N,00839.8988,E,,,110321,,*0f
$GPGGA,080805.00,5005.4349101,N,00839.8988495,E,1,10,1.1,178.606,M,0.0,M,,*57
$GPRMC,080806.000,A,5005.4349,N,00839.8989,E,,,110321,,*0d
$GPGGA,080806.00,5005.4349128,N,00839.8988520,E,1,10,1.1,178.601,M,0.0,M,,*57
$GPRMC,080807.000,A,5005.4349,N,00839.8989,E,,,110321,,*0c
$GPGGA,080807.00,5005.4349133,N,00839.8988568,E,1,10,1.1,178.606,M,0.0,M,,*57
$GPRMC,080808.000,A,5005.4349,N,00839.8989,E,,,110321,,*03
$GPGGA,080808.00,5005.4349136,N,00839.8988600,E,1,10,1.1,178.608,M,0.0,M,,*5e
$GPRMC,080809.000,A,5005.4349,N,00839.8989,E,,,110321,,*02
$GPGGA,080809.00,5005.4349201,N,00839.8988636,E,1,10,1.1,178.611,M,0.0,M,,*55
$GPRMC,080810.000,A,5005.4349,N,00839.8989,E,,,110321,,*0a
$GPGGA,080810.00,5005.4349200,N,00839.8988742,E,1,10,1.1,178.612,M,0.0,M,,*5d
$GPRMC,080811.000,A,5005.4349,N,00839.8989,E,,,110321,,*0b
$GPGGA,080811.00,5005.4349175,N,00839.8988754,E,1,10,1.1,178.609,M,0.0,M,,*50
$GPRMC,080812.000,A,5005.4349,N,00839.8989,E,,,110321,,*08
$GPGGA,080812.00,5005.4349133,N,00839.8988745,E,1,10,1.1,178.594,M,0.0,M,,*56
$GPRMC,080813.000,A,5005.4349,N,00839.8989,E,,,110321,,*09
$GPGGA,080813.00,5005.4349081,N,00839.8988719,E,1,10,1.1,178.596,M,0.0,M,,*54
$GPRMC,080814.000,A,5005.4349,N,00839.8989,E,,,110321,,*0e
$GPGGA,080814.00,5005.4349012,N,00839.8988675,E,1,10,1.1,178.583,M,0.0,M,,*56
$GPRMC,080815.000,A,5005.4349,N,00839.8989,E,,,110321,,*0f
$GPGGA,080815.00,5005.4348962,N,00839.8988654,E,1,10,1.1,178.570,M,0.0,M,,*57
$GPRMC,080816.000,A,5005.4349,N,00839.8989,E,,,110321,,*0c
$GPGGA,080816.00,5005.4348937,N,00839.8988691,E,1,10,1.1,178.563,M,0.0,M,,*5f
$GPRMC,080817.000,A,5005.4349,N,00839.8989,E,,,110321,,*0d
$GPGGA,080817.00,5005.4348948,N,00839.8988754,E,1,10,1.1,178.571,M,0.0,M,,*5d
$GPRMC,080818.000,A,5005.4349,N,00839.8989,E,,,110321,,*02
$GPGGA,080818.00,5005.4348938,N,00839.8988773,E,1,10,1.1,178.567,M,0.0,M,,*57
$GPRMC,080819.000,A,5005.4349,N,00839.8989,E,,,110321,,*03
$GPGGA,080819.00,5005.4348923,N,00839.8988811,E,1,10,1.1,178.572,M,0.0,M,,*53
$GPRMC,080820.000,A,5005.4349,N,00839.8989,E,,,110321,,*09
$GPGGA,080820.00,5005.4348931,N,00839.8988847,E,1,10,1.1,178.558,M,0.0,M,,*51
$GPRMC,080821.000,A,5005.4349,N,00839.8989,E,,,110321,,*08
$GPGGA,080821.00,5005.4348921,N,00839.8988851,E,1,10,1.1,178.547,M,0.0,M,,*58
$GPRMC,080822.000,A,5005.4349,N,00839.8989,E,,,110321,,*0b
$GPGGA,080822.00,5005.4348911,N,00839.8988854,E,1,10,1.1,178.538,M,0.0,M,,*55
$GPRMC,080823.000,A,5005.4349,N,00839.8989,E,,,110321,,*0a
$GPGGA,080823.00,5005.4348831,N,00839.8988853,E,1,10,1.1,178.532,M,0.0,M,,*5a
$GPRMC,080824.000,A,5005.4349,N,00839.8989,E,,,110321,,*0d
$GPGGA,080824.00,5005.4348789,N,00839.8988811,E,1,10,1.1,178.508,M,0.0,M,,*5e
$GPRMC,080825.000,A,5005.4349,N,00839.8989,E,,,110321,,*0c
$GPGGA,080825.00,5005.4348701,N,00839.8988819,E,1,10,1.1,178.491,M,0.0,M,,*56
$GPRMC,080826.000,A,5005.4349,N,00839.8989,E,,,110321,,*0f
$GPGGA,080826.00,5005.4348623,N,00839.8988779,E,1,10,1.1,178.460,M,0.0,M,,*53
$GPRMC,080827.000,A,5005.4349,N,00839.8989,E,,,110321,,*0e
$GPGGA,080827.00,5005.4348515,N,00839.8988697,E,1,10,1.1,178.462,M,0.0,M,,*57
$GPRMC,080828.000,A,5005.4348,N,00839.8989,E,,,110321,,*00
$GPGGA,080828.00,5005.4348479,N,00839.8988658,E,1,10,1.1,178.457,M,0.0,M,,*56
$GPRMC,080829.000,A,5005.4348,N,00839.8989,E,,,110321,,*01
$GPGGA,080829.00,5005.4348470,N,00839.8988683,E,1,10,1.1,178.427,M,0.0,M,,*5f
$GPRMC,080830.000,A,5005.4348,N,00839.8989,E,,,110321,,*09
$GPGGA,080830.00,5005.4348465,N,00839.8988701,E,1,10,1.1,178.422,M,0.0,M,,*5d
$GPRMC,080831.000,A,5005.4348,N,00839.8989,E,,,110321,,*08
$GPGGA,080831.00,5005.4348459,N,00839.8988708,E,1,10,1.1,178.419,M,0.0,M,,*52
$GPRMC,080832.000,A,5005.4348,N,00839.8989,E,,,110321,,*0b
$GPGGA,080832.00,5005.4348423,N,00839.8988718,E,1,10,1.1,178.414,M,0.0,M,,*50
$GPRMC,080833.000,A,5005.4348,N,00839.8989,E,,,110321,,*0a
$GPGGA,080833.00,5005.4348411,N,00839.8988715,E,1,10,1.1,178.395,M,0.0,M,,*53
$GPRMC,080834.000,A,5005.4348,N,00839.8989,E,,,110321,,*0d
$GPGGA,080834.00,5005.4348374,N,00839.8988716,E,1,10,1.1,178.383,M,0.0,M,,*54
$GPRMC,080835.000,A,5005.4348,N,00839.8989,E,,,110321,,*0c
$GPGGA,080835.00,5005.4348362,N,00839.8988674,E,1,10,1.1,178.366,M,0.0,M,,*5c
$GPRMC,080836.000,A,5005.4348,N,00839.8989,E,,,110321,,*0f
$GPGGA,080836.00,5005.4348345,N,00839.8988697,E,1,10,1.1,178.351,M,0.0,M,,*53
$GPRMC,080837.000,A,5005.4348,N,00839.8989,E,,,110321,,*0e
$GPGGA,080837.00,5005.4348359,N,00839.8988621,E,1,10,1.1,178.370,M,0.0,M,,*51
$GPRMC,080838.000,A,5005.4348,N,00839.8989,E,,,110321,,*01
$GPGGA,080838.00,5005.4348343,N,00839.8988612,E,1,10,1.1,178.366,M,0.0,M,,*52
$GPRMC,080839.000,A,5005.4348,N,00839.8989,E,,,110321,,*00
$GPGGA,080839.00,5005.4348306,N,00839.8988595,E,1,10,1.1,178.370,M,0.0,M,,*59
$GPRMC,080840.000,A,5005.4348,N,00839.8989,E,,,110321,,*0e
$GPGGA,080840.00,5005.4348290,N,00839.8988594,E,1,10,1.1,178.360,M,0.0,M,,*59
$GPRMC,080841.000,A,5005.4348,N,00839.8989,E,,,110321,,*0f
$GPGGA,080841.00,5005.4348283,N,00839.8988585,E,1,10,1.1,178.349,M,0.0,M,,*51
$GPRMC,080842.000,A,5005.4348,N,00839.8989,E,,,110321,,*0c
$GPGGA,080842.00,5005.4348307,N,00839.8988556,E,1,10,1.1,178.353,M,0.0,M,,*5a
$GPRMC,080843.000,A,5005.4348,N,00839.8989,E,,,110321,,*0d
$GPGGA,080843.00,5005.4348354,N,00839.8988559,E,1,10,1.1,178.346,M,0.0,M,,*56
$GPRMC,080844.000,A,5005.4348,N,00839.8989,E,,,110321,,*0a
$GPGGA,080844.00,5005.4348405,N,00839.8988568,E,1,10,1.1,178.354,M,0.0,M,,*53
$GPRMC,080845.000,A,5005.4348,N,00839.8989,E,,,110321,,*0b
$GPGGA,080845.00,5005.4348464,N,00839.8988597,E,1,10,1.1,178.353,M,0.0,M,,*52
$GPRMC,080846.000,A,5005.4349,N,00839.8989,E,,,110321,,*09
$GPGGA,080846.00,5005.4348540,N,00839.8988618,E,1,10,1.1,178.362,M,0.0,M,,*50
